company_type;name;region;working_place;investments, milliom UAH;longitude;latitude;sf_coordinates
Industrial_parks;"ІП ""Сігма парк Яричів""";Львівська;6500;NA;24.261;49.911092;c(24.261, 49.911092)
Industrial_parks;"ІП ""Павлоград""";Дніпропетровська;5e3;NA;35.528412;48.461995;c(35.528412, 48.461995)
Industrial_parks;"Приватний ІП ""Мироцьке""";Київська;NA;NA;30.106831;50.563572;c(30.106831, 50.563572)
Industrial_parks;Вінницький індустріальний парк;Вінницька;7e3;NA;28.548554;49.237118;c(28.548554, 49.237118)
Industrial_parks;"ІП ""Вінницький кластер холодильного машинобудування""";Вінницька;NA;NA;28.562922;49.223471;c(28.562922, 49.223471)
Industrial_parks;"ІП ""ЖИТОМИР-СХІД""";Житомирська;NA;NA;28.723899;50.275938;c(28.723899, 50.275938)
Industrial_parks;"ІП ""Новодністровськ"""; Чернівецька;NA;NA;27.434111;48.578389;c(27.434111, 48.578389)
Industrial_parks;"ІП ""Фастіндастрі""";Київська;NA;NA;29.946111;50.0625;c(29.946111, 50.0625)
Industrial_parks;"ІП ""UNIT.City""";Київ;NA;NA;30.461767;50.467926;c(30.461767, 50.467926)
Industrial_parks;Яворівський ІП;Львівська;NA;NA;23.349895;50.092283;c(23.349895, 50.092283)
Industrial_parks;"Промисловий парк ""Тростянець""";Сумська;NA;NA;34.936297;50.488491;c(34.936297, 50.488491)
Industrial_parks;"ІП ""Золотоноша""";Черкаська;NA;NA;32.032705;49.689015;c(32.032705, 49.689015)
Industrial_parks;"ІП ""Кривбас""";Дніпропетровська;NA;NA;33.489223;47.968822;c(33.489223, 47.968822)
Industrial_parks;"ІП ""iPARK""";Одеська;NA;NA;30.998887;46.694436;c(30.998887, 46.694436)
Industrial_parks;"ІП ""Кам'янка-Бузький""";Львівська;NA;NA;24.33723;50.110015;c(24.33723, 50.110015)
Industrial_parks;Новороздільський ІП;Львівська;NA;NA;24.116613;49.467141;c(24.116613, 49.467141)
Industrial_parks;"ІП ""Нововолинськ""";Волинська;NA;NA;24.346942;50.804826;c(24.346942, 50.804826)
Industrial_parks;"ІП ""Лиманський""";Донецька;NA;NA;37.804996;48.989759;c(37.804996, 48.989759)
Industrial_parks;"ІП ""Ланнівський індустріальний парк""";Полтавська;NA;NA;35.251655;49.351069;c(35.251655, 49.351069)
Industrial_parks;"ІП ""Київщина""";Київська;3e3;NA;30.42867;50.622761;c(30.42867, 50.622761)
Industrial_parks;"ІП ""Олександрія""";Кіровоградська;NA;NA;33.146858;48.673665;c(33.146858, 48.673665)
Industrial_parks;"ІП ""Innovation District IT Park""";Львівська;NA;NA;24.020596;49.813791;c(24.020596, 49.813791)
Industrial_parks;"ІП ""Біла церква""";Київська;NA;NA;30.188873;49.781873;c(30.188873, 49.781873)
Working_Factories;Біогазовий завод;Київська;NA;NA;31.215366;50.317295;c(31.215366, 50.317295)
Working_Factories;"Біогазовий завод ""Сільгосппродукт""";Київська;NA;NA;30.500836;49.689265;c(30.500836, 49.689265)
Working_Factories;Біогазовий завод;Дніпропетровська;NA;16;35.314149;48.598535;c(35.314149, 48.598535)
Working_Factories;Біогазовий завод;Донецька;20;NA;37.4895;47.6036;c(37.4895, 47.6036)
Working_Factories;Біогазовий завод;Хмельницька;50;NA;26.46594;49.85033;c(26.46594, 49.85033)
Working_Factories;Біогазовий завод;Миколаївська;NA;NA;30.991489;47.418758;c(30.991489, 47.418758)
Working_Factories;Біогазова установка;Черкаська;NA;NA;31.895356;49.420701;c(31.895356, 49.420701)
Working_Factories;Біогазовий комплекс;Одеська;24;544;29.458461;47.555757;c(29.458461, 47.555757)
Working_Factories;Станція з переробки відходів в біогаз;Дніпропетровська;NA;NA;34.647418;48.599171;c(34.647418, 48.599171)
Working_Factories;"Завод ""TM Ondo""";Івано-Франківська;NA;NA;24.700012;48.921597;c(24.700012, 48.921597)
Working_Factories;Завод з виготовлення змішаних мінеральних добрив;Тернопільська;NA;NA;25.698706;50.131129;c(25.698706, 50.131129)
Working_Factories;"Завод ""Тернопільський кар'єр""";Тернопільська;NA;15;25.920653;49.539901;c(25.920653, 49.539901)
Working_Factories;"Завод насіння НВФГ ""МАЇС""";Дніпропетровська;NA;NA;35.666111;48.432778;c(35.666111, 48.432778)
Working_Factories;"Ливарний завод ПрАТ ""Металіт""";Кіровоградська;200;120;32.335654;48.502698;c(32.335654, 48.502698)
Working_Factories;"Маслоекстракційний завод ""Allseeds Black Sea""";Одеська;NA;5600;31.026771;46.618898;c(31.026771, 46.618898)
Working_Factories;Молокозавод;Львівська;NA;NA;23.055812;48.899302;c(23.055812, 48.899302)
Working_Factories;"Завод "" Puratos""";Одеська;60;224;30.583333;46.6;c(30.583333, 46.6)
Working_Factories;Чайна фабрика Unilever;Київська;NA;NA;30.215074;50.579141;c(30.215074, 50.579141)
Working_Factories;Зерновий термінал та олійнопереробний завод Bunge;Миколаївська;NA;NA;32.003542;46.949856;c(32.003542, 46.949856)
Working_Factories;"Завод полуфабрикатів ""Інтерагросистема""";Чернігівська;50;48;32.247676;51.52694;c(32.247676, 51.52694)
Working_Factories;Завод по производству удобрений из мусора;Харківська;NA;NA;35.540244;50.163624;c(35.540244, 50.163624)
Working_Factories;"Хлібозавод компанії ""Хлібні інвестиції""";Київська;NA;NA;30.435882;50.623393;c(30.435882, 50.623393)
Working_Factories;Завод з переробки сміття;Закарпатська;NA;NA;22.62912;48.252513;c(22.62912, 48.252513)
Working_Factories;Завод по производству бетона и растворов;Київська;NA;NA;30.840513;50.523715;c(30.840513, 50.523715)
Working_Factories;Завод з виготовлення бітумної емульсії;Івано-Франківська;NA;9;25.496255;48.672398;c(25.496255, 48.672398)
Working_Factories;Завод по переработке молока;Полтавська;NA;NA;34.467661;49.849492;c(34.467661, 49.849492)
Working_Factories;Завод по переробці олійних культур;Львівська;45;NA;24.856824;49.837736;c(24.856824, 49.837736)
Working_Factories;Завод із виробництва електричного устаткування - 1;Львівська;1200;NA;23.897136;49.860054;c(23.897136, 49.860054)
Working_Factories;Завод із виробництва електричного устаткування - 2;Львівська;1800;NA;23.895849;49.860265;c(23.895849, 49.860265)
Working_Factories;"Перевантажувальний термінал філії ""Вознесенська""";Миколаївська;NA;500;31.325015;47.533972;c(31.325015, 47.533972)
Working_Factories;Перевантажувальний термінал;Миколаївська;NA;450;31.191145;47.753814;c(31.191145, 47.753814)
Working_Factories;Завод з виробництва мінеральних добрив;Київська;NA;110;30.131085;49.796798;c(30.131085, 49.796798)
Working_Factories;Комплекс вдування пиловугільного палива;Донецька;NA;NA;37.584221;47.096073;c(37.584221, 47.096073)
Working_Factories;Тваринницький комплекс;Тернопільська;NA;NA;25.362246;49.15978;c(25.362246, 49.15978)
Working_Factories;Тваринницький комплекс;Тернопільська;80;NA;25.472725;49.112205;c(25.472725, 49.112205)
Working_Factories;Переробний комплекс та фруктосховище;Тернопільська;NA;NA;25.381716;49.064831;c(25.381716, 49.064831)
Working_Factories;Елеваторний комплекс;Луганська;55;NA;38.17001;49.403732;c(38.17001, 49.403732)
Working_Factories;Перегрузочный зерновой комплекс;Херсонська;NA;NA;34.821324;46.178373;c(34.821324, 46.178373)
Working_Factories;Завод з виробництва електротехнічного та оптичного устаткування;Житомирська;NA;NA;28.681383;50.343676;c(28.681383, 50.343676)
Working_Factories;Завод із переробки сої;Тернопільська;12;NA;25.49136;49.426568;c(25.49136, 49.426568)
Working_Factories;Завод з виробництва паливних гранул;Львівська;NA;2;23.865275;49.88821;c(23.865275, 49.88821)
Working_Factories;Завод з виробництва мінеральних добрив;Рівненська;NA;NA;26.375522;50.765412;c(26.375522, 50.765412)
Working_Factories;Завод з виробництва комплектуючих для Audi та BMW;Львівська;1100;132;23.890795;49.883277;c(23.890795, 49.883277)
Working_Factories;Завод з виробництва комплектуючих ;Львівська;1e3;NA;23.890479;49.882206;c(23.890479, 49.882206)
Working_Factories;Маслоналивной терминал;Миколаївська;NA;NA;31.952608;46.774939;c(31.952608, 46.774939)
Working_Factories;Завод з виробництва електрокабельної продукції; Чернівецька;1e3;80;25.935837;48.292079;c(25.935837, 48.292079)
Working_Factories;Завод з виробництва кабельно-провідникової продукції;Тернопільська;2500;384;25.802651;49.010884;c(25.802651, 49.010884)
Working_Factories;Завод комплектуючих для авто;Івано-Франківська;5e3;512;25.0616;48.5348;c(25.0616, 48.5348)
Working_Factories;Завод з переробки сільськогосподарських культур;Чернігівська;NA;NA;32.397489;50.857956;c(32.397489, 50.857956)
Working_Factories;Линия по переработке древесины;Сумська;NA;7;33.472069;51.770522;c(33.472069, 51.770522)
Working_Factories;"Насіннєвий завод ""КВС-Україна""";Хмельницька;NA;NA;26.593222;48.703677;c(26.593222, 48.703677)
Working_Factories;"Швейна фабрика ""Blue Moon Clothing""";Львівська;NA;NA;24.035658;49.863729;c(24.035658, 49.863729)
Working_Factories;Швейна фабрика;Львівська;45;NA;24.329;50.064194;c(24.329, 50.064194)
Working_Factories;Фабрика агрохімікатів;Черкаська;NA;NA;32.053296;49.392755;c(32.053296, 49.392755)
Working_Factories;Завод з виробництва асфальту;Закарпатська;NA;NA;22.76359;48.467455;c(22.76359, 48.467455)
Working_Factories;Завод ФФУ з виробництва штучних футбольних полів;Київська;50;NA;30.868693;50.314928;c(30.868693, 50.314928)
Working_Factories;"Завод ""Українські Лісопильні""";Рівненська;150;800;26.438361;50.895095;c(26.438361, 50.895095)
Working_Factories;Фармацевтичний завод;Київська;NA;1176;30.136728;49.813847;c(30.136728, 49.813847)
Working_Factories;"Теплоелектростанція ""Знаменівка""";Дніпропетровська;NA;NA;35.465612;48.637057;c(35.465612, 48.637057)
Working_Factories;Завод із виробництва тротуарної плитки та бетонних виробів;Львівська;16;29;23.639486;49.781851;c(23.639486, 49.781851)
Working_Factories;Завод з виробництва борошна;Львівська;35;30;24.81096;49.957799;c(24.81096, 49.957799)
Working_Factories;Завод побутової техніки;Черкаська;1200;NA;32.033782;49.407922;c(32.033782, 49.407922)
Working_Factories;Завод з виробництва EVA-матів;Одеська;NA;NA;30.643411;46.297115;c(30.643411, 46.297115)
Working_Factories;Тепличний комплекс;Львівська;12;NA;24.614231;49.968297;c(24.614231, 49.968297)
Working_Factories;Асфальтобетонний завод;Закарпатська;40;NA;22.72522;48.423275;c(22.72522, 48.423275)
Working_Factories;Асфальтобетонний завод;Полтавська;50;NA;34.767251;49.609752;c(34.767251, 49.609752)
Working_Factories;Асфальтобетонний завод;Полтавська;NA;NA;34.109929;49.234842;c(34.109929, 49.234842)
Working_Factories;Асфальтобетонний завод;Івано-Франківська;NA;NA;25.161674;48.498489;c(25.161674, 48.498489)
Working_Factories;Асфальтобетонний завод;Львівська;NA;NA;24.23937;50.472932;c(24.23937, 50.472932)
Working_Factories;Асфальтобетонний завод;Донецька;NA;NA;37.559968;48.718058;c(37.559968, 48.718058)
Working_Factories;Асфальтобетонний завод;Львівська;NA;NA;23.968828;49.516305;c(23.968828, 49.516305)
Working_Factories;Асфальтобетонний завод Marini;Дніпропетровська;NA;NA;33.758136;48.101699000000004;c(33.758136, 48.101699)
Working_Factories;Асфальтобетонний завод Marini;Дніпропетровська;NA;NA;34.775215;48.338277;c(34.775215, 48.338277)
Working_Factories;Асфальтобетонний завод;Херсонська;NA;NA;34.408122;46.907654;c(34.408122, 46.907654)
Working_Factories;Асфальтобетонний завод;Донецька;NA;NA;37.492932;47.084182;c(37.492932, 47.084182)
Working_Factories;Асфальтобетонний завод;Львівська;100;NA;23.249294;49.554578;c(23.249294, 49.554578)
Working_Factories;Асфальтобетонний завод;Сумська;NA;13;34.789757;50.939101;c(34.789757, 50.939101)
Working_Factories;Асфальтобетонний завод;Закарпатська;NA;NA;23.183589;48.716885;c(23.183589, 48.716885)
Working_Factories;Асфальтобетонний завод;Дніпропетровська;NA;NA;34.571754;48.176183;c(34.571754, 48.176183)
Working_Factories;Асфальтобетонний завод;Харківська;NA;NA;36.115503;50.109721;c(36.115503, 50.109721)
Working_Factories;Асфальтобетонний завод;Дніпропетровська;NA;NA;35.194053;48.614675;c(35.194053, 48.614675)
Working_Factories;Асфальтобетонний завод;Кіровоградська;NA;NA;32.224737;48.962787;c(32.224737, 48.962787)
Working_Factories;Асфальтобетонний завод;Вінницька;11;NA;29.006395;48.926165;c(29.006395, 48.926165)
Working_Factories;Асфальтобетонний завод;Кіровоградська;NA;NA;33.096787;48.66327;c(33.096787, 48.66327)
Working_Factories;Асфальтний завод;Закарпатська;NA;NA;23.681269;48.000385;c(23.681269, 48.000385)
Working_Factories;Асфальтний завод;Одеська;100;26;29.515376;47.775427;c(29.515376, 47.775427)
Working_Factories;Асфальтний завод;Закарпатська;NA;NA;23.186536;48.21021;c(23.186536, 48.21021)
Working_Factories;Асфальтний завод;Черкаська;30;NA;32.127411;50.151295;c(32.127411, 50.151295)
Working_Factories;Завод з виробництва тканини;Львівська;60;NA;24.346445;50.321638;c(24.346445, 50.321638)
Working_Factories;Деревообробне підприємство;Львівська;NA;NA;23.433329;49.301926;c(23.433329, 49.301926)
Working_Factories;Завод ДИМКОМ;Львівська;40;5;24.005084;49.783046;c(24.005084, 49.783046)
Working_Factories;"Сирзавод ""Барком""";Львівська;NA;NA;24.989948;49.741021;c(24.989948, 49.741021)
Working_Factories;"Завод з виготовлення електричних кабельних мереж компанії ""Електроконтакт Україна""";Львівська;2e3;960;25.148924;50.09665;c(25.148924, 50.09665)
Working_Factories;Завод з виробництва ветеринарних препаратів і кормових добавок;Харківська;100;100;36.147443;50.087531;c(36.147443, 50.087531)
Working_Factories;Винзавод;Одеська;12;NA;28.890827;45.567709;c(28.890827, 45.567709)
Working_Factories;Насіннєвий завод;Волинська;12;NA;24.217068;50.860033;c(24.217068, 50.860033)
Working_Factories;Насіннєвий завод;Херсонська;NA;NA;32.707796;46.733206;c(32.707796, 46.733206)
Working_Factories;Завод з переробки меду;Черкаська;52;NA;32.263365;49.265373;c(32.263365, 49.265373)
Working_Factories;Завод з переробки меду та продуктів бджільництва;Львівська;50;20;24.004422;50.042606;c(24.004422, 50.042606)
Working_Factories;Завод з виробництва упаковок для дитячого харчування;Сумська;390;NA;34.771704;50.949654;c(34.771704, 50.949654)
Working_Factories;Завод з розробки і виробництва нанодобрив;Херсонська;NA;NA;32.557596;46.522628;c(32.557596, 46.522628)
Working_Factories;Алюмінієвий завод Global Extrusion;Київська;NA;NA;30.373802;50.374674;c(30.373802, 50.374674)
Working_Factories;Сміттепереробний завод;Черкаська;20;NA;31.909822;49.237713;c(31.909822, 49.237713)
Working_Factories;Сортувальна лінія ТПВ;Івано-Франківська;NA;12;24.613715;48.960341;c(24.613715, 48.960341)
Working_Factories;Швейна фабрика;Херсонська;75;NA;33.489873;46.812651;c(33.489873, 46.812651)
Working_Factories;Лінія по виготовленню паливних брикетів із соломи;Вінницька;NA;NA;27.76134;48.804785;c(27.76134, 48.804785)
Working_Factories;Завод з виготовлення SMD-модулів Flylights Factory;Київ;NA;NA;30.568179;50.402745;c(30.568179, 50.402745)
Working_Factories;Хлібзавод;Чернігівська;NA;96;31.261227;51.482259;c(31.261227, 51.482259)
Working_Factories;Завод по виробництву хімічно чистих добрив;Херсонська;30;23;33.498307;46.802145;c(33.498307, 46.802145)
Working_Factories;"Завод ""Термо-Пак""";Київська;NA;NA;30.124451;49.802643;c(30.124451, 49.802643)
Working_Factories;Завод з виробництва будівельних виробів із бетону;Івано-Франківська;NA;NA;23.911244;48.933807;c(23.911244, 48.933807)
Working_Factories;Кондитерський цех;Черкаська;200;NA;31.733937;49.23259;c(31.733937, 49.23259)
Working_Factories;Швейна фабрика;Тернопільська;46;NA;25.795098;49.013981;c(25.795098, 49.013981)
Working_Factories;"Швейна фабрика ""Мануфактура""";Тернопільська;70;NA;24.940659;49.516677;c(24.940659, 49.516677)
Working_Factories;"Філія швейної фабрики ""ВіД""";Херсонська;100;0.4;32.520127;46.521095;c(32.520127, 46.521095)
Working_Factories;"Філія швейної фабрики ""ВіД""";Херсонська;20;NA;34.806818;46.178433;c(34.806818, 46.178433)
Working_Factories;"Філія швейної фабрики ""ВіД""";Миколаївська;NA;NA;32.806177;47.07537;c(32.806177, 47.07537)
Working_Factories;"Філія швейної фабрики ""ВіД""";Херсонська;NA;NA;32.722564;46.603835;c(32.722564, 46.603835)
Working_Factories;"Філія швейної фабрики ""Gregory Arber""";Миколаївська;NA;10;31.316037;47.574194;c(31.316037, 47.574194)
Working_Factories;Завод із виробництва світлодіодних світильників;Львівська;NA;NA;23.939177;49.871235;c(23.939177, 49.871235)
Working_Factories;Верстатобудівний завод;Черкаська;20;NA;32.161496;49.606681;c(32.161496, 49.606681)
Working_Factories;Комбінат баранкових виробів;Черкаська;100;NA;31.04554;49.019424;c(31.04554, 49.019424)
Working_Factories;Завод з виробництва комбікормів, молочна ферма, машинно-тракторний парк;Житомирська;NA;160;29.619141;49.954147;c(29.619141, 49.954147)
Working_Factories;"Завод з виробництва органічних олій ""Укролія органік""";Полтавська;NA;NA;34.591271;49.835884;c(34.591271, 49.835884)
Working_Factories;Завод з виробництва кабельної продукції;Вінницька;700;NA;28.847408;48.974952;c(28.847408, 48.974952)
Working_Factories;Завод із дроблення каменю;Тернопільська;50;47;25.878362;49.596763;c(25.878362, 49.596763)
Working_Factories;Завод з переробки насіння соняшнику;Кіровоградська;146;NA;33.283856;49.110899;c(33.283856, 49.110899)
Working_Factories;Насіннєвий завод;Житомирська;NA;NA;29.605908;49.94262;c(29.605908, 49.94262)
Working_Factories;Виробничий комплекс по переробці насіння соняшнику;Кіровоградська;20;2;32.666705;48.723868;c(32.666705, 48.723868)
Working_Factories;Завод по переробці сої;Кіровоградська;200;80;33.284091;49.109971;c(33.284091, 49.109971)
Working_Factories;Завод з виробництва хімічних реактивів;Черкаська;NA;NA;32.059343;49.399762;c(32.059343, 49.399762)
Working_Factories;Маслоекстрактний цех по переробці насіння соняшнику;Кіровоградська;20;2;32.75345;48.14063;c(32.75345, 48.14063)
Working_Factories;Олійноекстракційний завод по переробці сої;Кіровоградська;382;NA;33.293287;49.118365;c(33.293287, 49.118365)
Working_Factories;Завод з виробництва будівельних матеріалів;Івано-Франківська;40;2080;25.107806;48.756752;c(25.107806, 48.756752)
Working_Factories;Завод з виробництва будівельних матеріалів та душових модулів;Вінницька;10;2.88;28.682026;49.107833;c(28.682026, 49.107833)
Working_Factories;Деревообробний комбінат;Житомирська;356;NA;28.642321;50.97008;c(28.642321, 50.97008)
Working_Factories;Сирний завод;Харківська;NA;NA;37.382294;50.060004;c(37.382294, 50.060004)
Working_Factories;Завод з виробництва вівсяних пластівців;Чернігівська;100;NA;31.073148;51.452814;c(31.073148, 51.452814)
Working_Factories;Молокопереробний завод;Львівська;NA;NA;23.851616;49.207085;c(23.851616, 49.207085)
Working_Factories;Горіховий центр;Черкаська;NA;10;32.085306;49.313132;c(32.085306, 49.313132)
Working_Factories;Завод з переробки сміття;Закарпатська;80;NA;22.677985;48.280051;c(22.677985, 48.280051)
Working_Factories;Фабрика із виробництва м'яких меблів;Львівська;NA;NA;23.809855;49.946416;c(23.809855, 49.946416)
Working_Factories;Завод з виробництва паливних брикетів із соломи, лози та дерева;Одеська;NA;NA;30.241351;46.633932;c(30.241351, 46.633932)
Working_Factories;Завод бджолярської продукції;Сумська;10;NA;34.472995;50.580932;c(34.472995, 50.580932)
Working_Factories;Завод з виробництва дентальних імплантатів;Дніпропетровська;NA;NA;35.046183;48.464717;c(35.046183, 48.464717)
Working_Factories;Бісквітний комплекс;Дніпропетровська;120;120;35.0956;48.509563;c(35.0956, 48.509563)
Working_Factories;Завод з виробництва біоетанолу;Волинська;100;NA;25.302091;50.699502;c(25.302091, 50.699502)
Working_Factories;Завод з виробництва запашних спиртовмісних речовин та оцту;Львівська;NA;NA;23.729215;49.724124;c(23.729215, 49.724124)
Working_Factories;Завод з виробництва сонячних панелей;Запорізька;NA;NA;34.634186;47.501507;c(34.634186, 47.501507)
Working_Factories;Ливарний завод;Запорізька;NA;38;35.38332;46.827512;c(35.38332, 46.827512)
Working_Factories;Завод мінеральних добрив;Черкаська;NA;150;31.946041;49.315325;c(31.946041, 49.315325)
Working_Factories;Завод з виробництва рідких добрив;Одеська;NA;NA;29.673583;46.020323;c(29.673583, 46.020323)
Working_Factories;Завод з виробництва м'яких меблів;Львівська;540;NA;24.244641;50.008577;c(24.244641, 50.008577)
Working_Factories;Завод з переробки томатів;Миколаївська;110;NA;32.811242;47.09211;c(32.811242, 47.09211)
Working_Factories;Комплекс з переробки радіоактивних відходів;Рівненська;NA;342;25.893129;51.328277;c(25.893129, 51.328277)
Working_Factories;Цех по виробництву паливних брикетів;Кіровоградська;3;NA;32.764772;48.111142;c(32.764772, 48.111142)
Working_Factories;Цех екстракції масляних культур;Кіровоградська;20;2;32.712222;48.115833;c(32.712222, 48.115833)
Working_Factories;Міні-цех по переробці молока;Кіровоградська;NA;2;32.727549;48.913973;c(32.727549, 48.913973)
Working_Factories;Цех з екстракції рослинної олії;Кіровоградська;10;20;30.4441;48.377361;c(30.4441, 48.377361)
Working_Factories;Цех рафінації й дезoдoрaції oлії тa цех рoзливу oлії;Кіровоградська;100;NA;32.183144;48.512766;c(32.183144, 48.512766)
Working_Factories;Швейний цех;Кіровоградська;40;NA;32.775249;48.117413;c(32.775249, 48.117413)
Working_Factories;Цех з пошиття взуття;Дніпропетровська;NA;NA;35.27727;48.403358;c(35.27727, 48.403358)
Working_Factories;Взуттєва фабрика Zirka Manufaktura;Черкаська;240;NA;32.700087;49.06224;c(32.700087, 49.06224)
Working_Factories;Підприємство з виробництва виробів з м’яса;Кіровоградська;NA;NA;32.262654;48.517996;c(32.262654, 48.517996)
Working_Factories;Сироварний цех;Сумська;NA;NA;34.807184;50.881923;c(34.807184, 50.881923)
Working_Factories;Сироварний цех; Чернівецька;NA;1.28;25.967037;48.116858;c(25.967037, 48.116858)
Working_Factories;Меблевий парк;Івано-Франківська;NA;NA;24.726694;48.899657;c(24.726694, 48.899657)
Working_Factories;Виробництво дерев'яного меблевого щита;Сумська;20;NA;34.922616;50.95407;c(34.922616, 50.95407)
Working_Factories;Завод високопротеїнових добавок;Київська;NA;NA;30.485516;49.703406;c(30.485516, 49.703406)
Working_Factories;Олійноекстракційний завод;Харківська;NA;NA;35.867413;49.721849;c(35.867413, 49.721849)
Working_Factories;Завод гарячого цинкування металоконструкцій;Київська;200;NA;31.356847;50.33506;c(31.356847, 50.33506)
Working_Factories;"Завод ""Перша Закарпатська Палинчарня""";Закарпатська;17;NA;22.284197;48.592421;c(22.284197, 48.592421)
Working_Factories;"Завод з виробництва холодильної техніки ""Green cool""";Вінницька;1200;640;28.555966;49.229248;c(28.555966, 49.229248)
Working_Factories;Бетонний завод;Рівненська;NA;NA;27.189334;51.295784;c(27.189334, 51.295784)
Working_Factories;Підприємство з вирощення креветок;Вінницька;35;NA;28.076771;49.048497;c(28.076771, 49.048497)
Working_Factories;Завод складського і підйомно-транспортного устаткування;Дніпропетровська;NA;NA;34.966748;48.465759;c(34.966748, 48.465759)
Working_Factories;"Завод побутової хімії ""Гранд Імпорт""";Хмельницька;NA;NA;26.953859;49.419377;c(26.953859, 49.419377)
Future_Factories;Завод з сушіння овочів;Миколаївська;40;NA;32.81127;47.091163;c(32.81127, 47.091163)
Future_Factories;Завод по литтю пластмаси;Закарпатська;NA;NA;22.703754;48.414271;c(22.703754, 48.414271)
Future_Factories;Завод з виробництвa aвтомобільних джгутів;Вінницька;2500;320;28.493119;49.24879;c(28.493119, 49.24879)
Future_Factories;Українсько-литовське виробництво сонячних панелей;Херсонська;NA;NA;32.605637;46.654798;c(32.605637, 46.654798)
Future_Factories;Меблевий завод;Львівська;500;192;23.427186;49.291247;c(23.427186, 49.291247)
Future_Factories;Завод з переробки гіпсової сировини;Івано-Франківська;35;NA;25.097065;48.7623;c(25.097065, 48.7623)
Future_Factories;Елеваторний комплекс;Сумська;60;NA;34.26321;51.148569;c(34.26321, 51.148569)
Future_Factories;Завод з виробництва біогазу;Тернопільська;NA;64;25.342797;48.933965;c(25.342797, 48.933965)
Future_Factories;Завод з виробництва біогазу;Черкаська;50;NA;31.719254;48.917274;c(31.719254, 48.917274)
Future_Factories;Зерновий термінал;Миколаївська;NA;NA;31.332088;47.536027;c(31.332088, 47.536027)
Future_Factories;Завод з переробки льону;Рівненська;1e3;560;26.541175;51.288623;c(26.541175, 51.288623)
Future_Factories;Лісопильний завод;Рівненська;365;NA;26.619663;51.35005;c(26.619663, 51.35005)
Future_Factories;Завод по переробці м'яса;Львівська;NA;NA;24.306851;49.819062;c(24.306851, 49.819062)
Future_Factories;Cміттєпереробний завод;Харківська;NA;800;36.151444;50.122804;c(36.151444, 50.122804)
Future_Factories;Завод із переробки картоплі;Чернігівська;50;NA;31.282883000000002;51.529251;c(31.282883, 51.529251)
Future_Factories;Завод крохмало- та картоплепродуктів;Чернігівська;160;56;31.182406;51.544478;c(31.182406, 51.544478)
Future_Factories;Біогазовий завод;Івано-Франківська;NA;NA;24.764922;49.132244;c(24.764922, 49.132244)
Future_Factories;Біогазовий завод;Львівська;NA;NA;23.028006;49.154057;c(23.028006, 49.154057)
Future_Factories;Біогазовий комплекс;Вінницька;NA;NA;29.200501;48.67029;c(29.200501, 48.67029)
Future_Factories;Біогазова електрична станція;Дніпропетровська;100;310;35.13521;48.413345;c(35.13521, 48.413345)
Future_Factories;Біогазова електрична станція;Чернігівська;NA;NA;32.400546;50.460162;c(32.400546, 50.460162)
Future_Factories;Біогазова електрична станція;Чернігівська;NA;NA;32.586275;50.477217;c(32.586275, 50.477217)
Future_Factories;Сміттєпереробний завод;Вінницька;NA;NA;29.211162;49.109592;c(29.211162, 49.109592)
Future_Factories;Сміттєпереробний завод;Кіровоградська;160;NA;32.310504;48.538867;c(32.310504, 48.538867)
Future_Factories;Асфальтобетонний завод;Львівська;NA;NA;23.05455;49.178654;c(23.05455, 49.178654)
Future_Factories;Асфальтобетонний завод;Сумська;NA;NA;33.394976;51.544914;c(33.394976, 51.544914)
Future_Factories;Асфальтний завод;Закарпатська;NA;NA;23.472474;48.0505;c(23.472474, 48.0505)
Future_Factories;Олійно-екстракційний завод по переробці сої;Хмельницька;205;NA;27.65294;49.668032;c(27.65294, 49.668032)
Future_Factories;Завод із переробки олійних культур;Хмельницька;NA;NA;27.177639;49.748897;c(27.177639, 49.748897)
Future_Factories;Елеватор;Харківська;35;30;37.357539;49.192116;c(37.357539, 49.192116)
Future_Factories;Елеватор;Житомирська;NA;NA;29.459532;49.943822;c(29.459532, 49.943822)
Future_Factories;Завод з переробки деревини;Рівненська;365;640;26.571293;51.203323;c(26.571293, 51.203323)
Future_Factories;Завод із переробки льону та конопель;Сумська;NA;NA;33.896969;51.661976;c(33.896969, 51.661976)
Future_Factories;"Завод органічних рідин ""Фазор""";Київська;NA;8.4;29.780495;49.972606999999996;c(29.780495, 49.972607)
Future_Factories;Фабрика по виробництву виробів з борошна;Київська;NA;NA;30.975223;50.368549;c(30.975223, 50.368549)
Future_Factories;Завод з переробки рідких радіоактивних відходів;Київська;NA;400;30.098966;51.391881;c(30.098966, 51.391881)
Future_Factories;Завод з виробництва біоетанолу;Одеська;400;NA;30.103259;47.878439;c(30.103259, 47.878439)
Future_Factories;"Завод коркувальних засобів і поліграфічних виробів АТ ""Технологія""";Сумська;200;115;34.771895;50.949455;c(34.771895, 50.949455)
Future_Factories;Цукровий завод;Черкаська;NA;NA;31.151252;49.33458;c(31.151252, 49.33458)
Future_Factories;Завод з виготовлення продукції з полівінілхлориду;Черкаська;1500;NA;31.865691;49.204489;c(31.865691, 49.204489)
Future_Factories;Кондитерська фабрика;Кіровоградська;500;NA;32.282664;48.470003;c(32.282664, 48.470003)
Future_Factories;Підприємство по переробці сільськогосподарської продукції;Кіровоградська;20;6;31.62799;48.6562;c(31.62799, 48.6562)
Future_Factories;Сміттєпереробний завод;Львівська;NA;NA;24.080231;49.864432;c(24.080231, 49.864432)
Future_Factories;Сміттєпереробна лінія;Вінницька;NA;4;28.752247;49.739965;c(28.752247, 49.739965)
Future_Factories;Сміттєпереробна лінія;Хмельницька;NA;NA;26.585644;48.742697;c(26.585644, 48.742697)
Future_Factories;Борошномельний завод;Київська;NA;NA;31.781765;50.256819;c(31.781765, 50.256819)
Future_Factories;Молокозавод;Вінницька;25;NA;29.338602;48.260678;c(29.338602, 48.260678)
Future_Factories;Завод з виробництва сонячних панелей;Вінницька;NA;NA;28.497883;49.264519;c(28.497883, 49.264519)
Future_Factories;Завод комплектуючих для авто;Івано-Франківська;NA;NA;24.622483;49.277464;c(24.622483, 49.277464)
Future_Factories;Цегельний завод;Тернопільська;NA;NA;25.344314;49.539715;c(25.344314, 49.539715)
Future_Factories;М'ясопереробний завод;Івано-Франківська;700;NA;24.628924;49.050331;c(24.628924, 49.050331)
Future_Factories;Хлібопекарський комплекс;Харківська;1e3;NA;36.389857;49.987042;c(36.389857, 49.987042)
Future_Factories;Завод Plank Electrotechnic;Київська;NA;NA;30.186341;49.783855;c(30.186341, 49.783855)
Future_Factories;Завод з виробництва кабельно-провідникової продукції;Хмельницька;500;NA;26.968796;49.434712;c(26.968796, 49.434712)
Future_Factories;Комплекс з гранулювання сульфату амонію;Дніпропетровська;74;211;33.469656;47.964137;c(33.469656, 47.964137)
Future_Factories;Завод з виробництва тканин;Чернігівська;80;130;31.28935;51.4982;c(31.28935, 51.4982)
Power_Stations;"Сонячна електростанція ""Лео-Солар-Енерджі""";Львівська;3;30;24.067027;49.876685;c(24.067027, 49.876685)
Power_Stations;Сонячна електростанція;Запорізька;7;NA;36.061209;47.61275;c(36.061209, 47.61275)
Power_Stations;"Сонячна електростанція ""Дібрівка""";Кіровоградська;2;NA;32.161344;48.060279;c(32.161344, 48.060279)
Power_Stations;"Сонячна електростанція ""Білозерка""";Херсонська;NA;NA;32.441373;46.626707;c(32.441373, 46.626707)
Power_Stations;"Солнечная электростанция ""Станіславчик""";Вінницька;NA;NA;28.104184;48.971838;c(28.104184, 48.971838)
Power_Stations;Сонячна електростанція;Івано-Франківська;NA;NA;25.569911;48.446424;c(25.569911, 48.446424)
Power_Stations;"Сонячна електростанція ""Балки""";Вінницька;NA;NA;27.719144;49.0496;c(27.719144, 49.0496)
Power_Stations;Сонячна електростанція;Дніпропетровська;NA;20;35.157261;48.558152;c(35.157261, 48.558152)
Power_Stations;"Сонячна електростанція ""Велітон-2,5""";Херсонська;NA;NA;34.63364;46.238649;c(34.63364, 46.238649)
Power_Stations;"Сонячна електростанція ""Верховка-2,8""";Вінницька;NA;NA;29.152859;48.453283;c(29.152859, 48.453283)
Power_Stations;"Сонячна електростанція ""Велиген-6,0""";Херсонська;NA;NA;34.661436;46.231212;c(34.661436, 46.231212)
Power_Stations;"Сонячна електростанція ""Глубочок""";Вінницька;NA;NA;29.403963;48.531704;c(29.403963, 48.531704)
Power_Stations;Сонячна електростанція;Вінницька;NA;NA;28.080057;48.749915;c(28.080057, 48.749915)
Power_Stations;Сонячна електростанція;Вінницька;NA;NA;29.734325;48.490558;c(29.734325, 48.490558)
Power_Stations;Сонячна електростанція м.Каховка;Херсонська;NA;NA;33.476828;46.797026;c(33.476828, 46.797026)
Power_Stations;Сонячна електростанція;Вінницька;NA;NA;28.484218;49.529383;c(28.484218, 49.529383)
Power_Stations;Сонячна електростанція;Вінницька;NA;NA;29.364352;48.216005;c(29.364352, 48.216005)
Power_Stations;Сонячна електростанція;Закарпатська;NA;NA;22.415497;48.692127;c(22.415497, 48.692127)
Power_Stations;Сонячна електростанція;Вінницька;NA;NA;28.321432;48.240209;c(28.321432, 48.240209)
Power_Stations;Сонячна електростанція; Чернівецька;NA;NA;25.732578;48.625583;c(25.732578, 48.625583)
Power_Stations;Сонячна електростанція;Дніпропетровська;NA;NA;34.351626;47.627012;c(34.351626, 47.627012)
Power_Stations;Сонячна електростанція;Дніпропетровська;25;NA;34.335324;47.630668;c(34.335324, 47.630668)
Power_Stations;Сонячна електростанція;Миколаївська;NA;NA;32.148212;46.995467;c(32.148212, 46.995467)
Power_Stations;"Сонячна електростанція ""Гута-2""";Закарпатська;NA;NA;22.378639;48.708893;c(22.378639, 48.708893)
Power_Stations;Сонячна електростанція СЕ-3;Закарпатська;NA;NA;22.23146;48.488113;c(22.23146, 48.488113)
Power_Stations;"Сонячна електростанція ""Кам'янече""";Кіровоградська;10;70;30.697297;48.723426;c(30.697297, 48.723426)
Power_Stations;"Сонячна електростанція ""Озерна""";Львівська;NA;NA;23.428208;49.966213;c(23.428208, 49.966213)
Power_Stations;"Сонячна електростанція ""Красне""";Одеська;NA;NA;29.246249;46.118365;c(29.246249, 46.118365)
Power_Stations;"Сонячна електростанція ""Броварська""";Київська;NA;NA;30.7909;50.511083;c(30.7909, 50.511083)
Power_Stations;"Сонячна електростанція ""Фабрика""";Херсонська;NA;NA;32.643911;46.672603;c(32.643911, 46.672603)
Power_Stations;Сонячна електростанція;Одеська;NA;NA;28.983169;45.585051;c(28.983169, 45.585051)
Power_Stations;Сонячна електростанція;Львівська;NA;NA;23.439057;49.291703;c(23.439057, 49.291703)
Power_Stations;Сонячна електростація;Львівська;NA;NA;24.116983;49.466653;c(24.116983, 49.466653)
Power_Stations;"Сонячна електроснація ""Яворів""";Львівська;NA;2080;23.504878;49.935288;c(23.504878, 49.935288)
Power_Stations;Трифонівська сонячна електростанція;Херсонська;NA;NA;33.523748;47.253727;c(33.523748, 47.253727)
Power_Stations;СЕС Солар Парк Веселе;Запорізька;NA;NA;34.89353;47.024782;c(34.89353, 47.024782)
Power_Stations;Самбірська сонячна станція-2;Львівська;NA;NA;23.257475;49.507743;c(23.257475, 49.507743)
Power_Stations;Сонячна електростанція;Херсонська;NA;NA;32.389601999999996;46.409269;c(32.389602, 46.409269)
Power_Stations;Сонячна електростанція;Херсонська;NA;NA;32.736648;46.624058;c(32.736648, 46.624058)
Power_Stations;Чорноминська СЕС 2;Вінницька;NA;NA;29.026703;48.225637999999996;c(29.026703, 48.225638)
Power_Stations;Димерська сонячна електростанція;Київська;NA;NA;30.89324;50.589992;c(30.89324, 50.589992)
Power_Stations;Геліосистема;Донецька;NA;5;37.503465;47.057977;c(37.503465, 47.057977)
Power_Stations;"Сонячна електростанція ""Рубанівка""";Херсонська;12;30;34.14424;47.011815;c(34.14424, 47.011815)
Power_Stations;Сонячна електростанція;Херсонська;NA;NA;34.398165;46.559399;c(34.398165, 46.559399)
Power_Stations;Сонячна електростанція;Запорізька;NA;NA;35.469992;46.631777;c(35.469992, 46.631777)
Power_Stations;Сонячна електростанція;Запорізька;NA;NA;34.585138;47.506689;c(34.585138, 47.506689)
Power_Stations;"Сонячна електростанція ""Терновиця""";Львівська;NA;149;23.485293;49.900001;c(23.485293, 49.900001)
Power_Stations;"Сонячна електростанція ""Солар Чорнобиль-1""";Київська;NA;NA;30.053731;51.404829;c(30.053731, 51.404829)
Power_Stations;Сонячна електростанція;Хмельницька;NA;NA;27.314402;48.750048;c(27.314402, 48.750048)
Power_Stations;Сонячна електростанція;Хмельницька;NA;NA;26.898301;48.889113;c(26.898301, 48.889113)
Power_Stations;Сонячна електростанція;Хмельницька;NA;NA;27.427786;49.279733;c(27.427786, 49.279733)
Power_Stations;Сонячна електроснація;Одеська;NA;NA;29.94604;46.040326;c(29.94604, 46.040326)
Power_Stations;"Сонячна електростанція ""Іванівка-2""";Кіровоградська;NA;NA;31.244603;48.763013;c(31.244603, 48.763013)
Power_Stations;Сонячна електростанція;Кіровоградська;NA;0.093;30.880759;48.246246;c(30.880759, 48.246246)
Power_Stations;Сонячна електростанція;Кіровоградська;NA;NA;31.507107;48.336379;c(31.507107, 48.336379)
Power_Stations;"Сонячна електростанція ""ТАВАНЬ СОЛАР 1""";Херсонська;NA;NA;33.426532;46.852475;c(33.426532, 46.852475)
Power_Stations;"Сонячна електростанція ""ТАВАНЬ СОЛАР 2""";Херсонська;NA;NA;33.433342;46.850981;c(33.433342, 46.850981)
Power_Stations;"Сонячна електростанція ""ТАВАНЬ СОЛАР 3""";Херсонська;NA;NA;33.430665;46.850826;c(33.430665, 46.850826)
Power_Stations;Сонячна електростанція;Одеська;NA;NA;30.309182;46.459189;c(30.309182, 46.459189)
Power_Stations;Сонячна електростанція;Вінницька;NA;21;29.223855;48.705266;c(29.223855, 48.705266)
Power_Stations;"Сонячна електростанція ""Добрівлянська ФЕС""";Тернопільська;10;120;25.7516;48.669673;c(25.7516, 48.669673)
Power_Stations;Сонячна електростанція;Івано-Франківська;NA;NA;23.936949;49.075292;c(23.936949, 49.075292)
Power_Stations;Сонячна електростанція;Миколаївська;NA;68;31.307341;47.607465;c(31.307341, 47.607465)
Power_Stations;Сонячна електростанція;Івано-Франківська;NA;NA;24.264092;48.754445;c(24.264092, 48.754445)
Power_Stations;Сонячна електростанція;Дніпропетровська;NA;NA;35.132239;48.589056;c(35.132239, 48.589056)
Power_Stations;Сонячна електростанція;Дніпропетровська;NA;NA;35.769923;48.562895;c(35.769923, 48.562895)
Power_Stations;Сонячна електростанція;Запорізька;75;NA;35.70739;47.267981;c(35.70739, 47.267981)
Power_Stations;Сонячна електростанція;Дніпропетровська;450;8160;35.979624;48.401081;c(35.979624, 48.401081)
Power_Stations;Нікопольська СЕС;Дніпропетровська;NA;7360;34.267438;47.665402;c(34.267438, 47.665402)
Power_Stations;Сонячна електростанція;Херсонська;NA;NA;32.145869;46.572328;c(32.145869, 46.572328)
Power_Stations;"Сонячна електростанція ""Богуслав 1""";Київська;NA;NA;30.873257;49.565662;c(30.873257, 49.565662)
Power_Stations;Сонячна електростанція;Кіровоградська;NA;NA;33.177961;48.460005;c(33.177961, 48.460005)
Power_Stations;Сонячна електростанція;Дніпропетровська;NA;NA;34.856673;48.213037;c(34.856673, 48.213037)
Power_Stations;"Сонячна електростанція ""Щирець-1""";Львівська;NA;64;23.842896;49.645473;c(23.842896, 49.645473)
Power_Stations;Сонячна електростанція;Дніпропетровська;NA;NA;34.878725;48.595217;c(34.878725, 48.595217)
Power_Stations;Сонячна електростанція;Кіровоградська;NA;NA;31.594191;48.170665;c(31.594191, 48.170665)
Power_Stations;Сонячна електростанція;Хмельницька;NA;NA;26.413438;48.651664;c(26.413438, 48.651664)
Power_Stations;Сонячна електростанція;Хмельницька;NA;NA;27.064031;48.593255;c(27.064031, 48.593255)
Power_Stations;Сонячна електростанція;Вінницька;NA;NA;28.605894;49.082332;c(28.605894, 49.082332)
Power_Stations;Сонячна електростанція; Чернівецька;NA;NA;25.341771;48.388513;c(25.341771, 48.388513)
Power_Stations;Сонячна електростанція;Івано-Франківська;NA;NA;25.412239;48.549987;c(25.412239, 48.549987)
Power_Stations;Дахова сонячна електростанція;Херсонська;NA;NA;33.698699;46.445703;c(33.698699, 46.445703)
Power_Stations;Сонячна електростанція;Херсонська;NA;NA;32.862102;46.480532;c(32.862102, 46.480532)
Power_Stations;Сонячна електростанція;Херсонська;NA;NA;32.957662;46.353662;c(32.957662, 46.353662)
Power_Stations;Сонячна електростанція;Кіровоградська;NA;NA;32.258173;48.242653;c(32.258173, 48.242653)
Power_Stations;Сонячна електростанція;Кіровоградська;NA;NA;32.294655;48.238623;c(32.294655, 48.238623)
Power_Stations;Сонячна електростанція;Київська;NA;NA;30.893211;49.556677;c(30.893211, 49.556677)
Power_Stations;Сонячна електростанція;Харківська;NA;NA;36.208925;50.119772;c(36.208925, 50.119772)
Power_Stations;Сонячна електростанція;Івано-Франківська;NA;NA;24.646438;48.98867;c(24.646438, 48.98867)
Power_Stations;"Сонячна електростанція ""Монастирчани""";Івано-Франківська;NA;NA;24.457519;48.723911;c(24.457519, 48.723911)
Power_Stations;Сонячна електростанція;Закарпатська;NA;NA;22.376351;48.420005;c(22.376351, 48.420005)
Power_Stations;Сонячна електростанція;Івано-Франківська;NA;NA;24.653798;48.852855;c(24.653798, 48.852855)
Power_Stations;Сонячна електростанція;Запорізька;NA;NA;35.710823;47.263321;c(35.710823, 47.263321)
Power_Stations;Сонячна електростанція;Житомирська;NA;NA;28.710172;49.893394;c(28.710172, 49.893394)
Power_Stations;Сонячна електростанція;Дніпропетровська;NA;NA;35.048962;48.589666;c(35.048962, 48.589666)
Power_Stations;"Сонячна електростанція ""Сонячна""";Кіровоградська;NA;170;32.666045;48.17891;c(32.666045, 48.17891)
Power_Stations;Гібридна електростанція;Одеська;150;13390;30.326603;46.506741;c(30.326603, 46.506741)
Power_Stations;Сонячна електростанція;Одеська;12;NA;28.91266;45.344224;c(28.91266, 45.344224)
Power_Stations;Сонячна електростанція;Хмельницька;8;NA;26.373105;49.126961;c(26.373105, 49.126961)
Power_Stations;Сонячна електростанція;Дніпропетровська;20;NA;33.282226;47.553524;c(33.282226, 47.553524)
Power_Stations;Сонячна електростанція;Херсонська;10;NA;34.763132;46.333312;c(34.763132, 46.333312)
Power_Stations;Сонячна електростанція;Одеська;NA;NA;30.348277;46.02396;c(30.348277, 46.02396)
Power_Stations;Сонячна електростанція;Херсонська;NA;NA;32.423492;46.755772;c(32.423492, 46.755772)
Power_Stations;Сонячна електростанція;Одеська;NA;NA;29.085628;46.042895;c(29.085628, 46.042895)
Power_Stations;Сонячна електростанція;Івано-Франківська;NA;NA;24.735319;48.85837;c(24.735319, 48.85837)
Power_Stations;Сонячна електростанція;Івано-Франківська;NA;NA;25.519146;48.422868;c(25.519146, 48.422868)
Power_Stations;"Сонячна електростанція ""Маків-1""";Хмельницька;NA;NA;26.711719;48.791984;c(26.711719, 48.791984)
Power_Stations;Сонячна електростанція;Херсонська;NA;NA;32.881139;46.760472;c(32.881139, 46.760472)
Power_Stations;Сонячна електростанція;Хмельницька;NA;NA;26.407369;49.48072;c(26.407369, 49.48072)
Power_Stations;Сонячна електростанція;Івано-Франківська;NA;NA;25.44215;48.798916;c(25.44215, 48.798916)
Power_Stations;Сонячна електростанція;Івано-Франківська;NA;NA;24.663778;49.114689;c(24.663778, 49.114689)
Power_Stations;Сонячна електростанція;Івано-Франківська;NA;NA;24.751521;49.135912;c(24.751521, 49.135912)
Power_Stations;"Сонячна електростанція ""Веряця-1""";Закарпатська;NA;NA;23.168353;48.14719;c(23.168353, 48.14719)
Power_Stations;"Сонячна електростанція ""Веряця-2""";Закарпатська;NA;NA;23.172219;48.144817;c(23.172219, 48.144817)
Power_Stations;Сонячна електростанція;Миколаївська;NA;NA;32.179036;47.043948;c(32.179036, 47.043948)
Power_Stations;Сонячна електростанція;Запорізька;NA;NA;34.971644;47.994512;c(34.971644, 47.994512)
Power_Stations;Сонячна електростанція;Херсонська;NA;NA;32.560714;46.753024;c(32.560714, 46.753024)
Power_Stations;Сонячна електростанція;Хмельницька;NA;NA;27.591815;49.866432;c(27.591815, 49.866432)
Power_Stations;"Сонячна електростанція ""Миролюбівка""";Херсонська;NA;NA;32.286672;46.726493;c(32.286672, 46.726493)
Power_Stations;"Сонячна електростанція ""Олешки-2""";Херсонська;NA;NA;32.801066;46.629765;c(32.801066, 46.629765)
Power_Stations;"Сонячна електростанція ""Олешки-1""";Херсонська;NA;NA;32.760491;46.612924;c(32.760491, 46.612924)
Power_Stations;Сонячна електростанція;Хмельницька;NA;NA;27.002323;49.483637;c(27.002323, 49.483637)
Power_Stations;"Сонячна електростанція ""Енергетичні поля СЕС Терновиця Енерджі""";Львівська;NA;NA;23.46515;49.923764;c(23.46515, 49.923764)
Power_Stations;Сонячна електростанція;Львівська;NA;NA;23.457679;49.927348;c(23.457679, 49.927348)
Power_Stations;Сонячна електростанція;Чернігівська;4;NA;31.385855;51.615386;c(31.385855, 51.615386)
Power_Stations;"Сонячна електростанція ""Либідь""";Дніпропетровська;NA;NA;34.123499;48.473308;c(34.123499, 48.473308)
Power_Stations;"Сонячна електростанція ""Укртрансгазу""";Київська;NA;NA;30.289033;50.350028;c(30.289033, 50.350028)
Power_Stations;Писарівська сонячна електростанція;Вінницька;NA;NA;28.597669;49.18563;c(28.597669, 49.18563)
Power_Stations;"Сонячна станція ""Іванівка-160""";Черкаська;NA;NA;31.235332;48.764054;c(31.235332, 48.764054)
Power_Stations;Сонячна електростанція;Кіровоградська;NA;NA;31.506995;48.336314;c(31.506995, 48.336314)
Power_Stations;Сонячна електростанція;Кіровоградська;NA;NA;31.593094;48.177207;c(31.593094, 48.177207)
Power_Stations;"Сонячна електростанція ""Рівнянська-2""";Кіровоградська;NA;NA;31.753473;48.250821;c(31.753473, 48.250821)
Power_Stations;"Сонячна електростанція ""Рівнянська-400""";Кіровоградська;NA;NA;31.750102;48.253512;c(31.750102, 48.253512)
Power_Stations;"Сонячна станція ""Рассвєт""";Кіровоградська;NA;NA;31.761818;48.194413;c(31.761818, 48.194413)
Power_Stations;"Сонячна станція ""Трак-Солар""";Кіровоградська;NA;NA;32.216264;48.519423;c(32.216264, 48.519423)
Power_Stations;"Сонячна електростанція ""Златодар""";Черкаська;NA;2;32.069403;49.658628;c(32.069403, 49.658628)
Power_Stations;Сонячна електростанція;Львівська;NA;14;24.212005;49.917181;c(24.212005, 49.917181)
Power_Stations;Сонячна електростанція;Дніпропетровська;NA;NA;35.022643;48.533209;c(35.022643, 48.533209)
Power_Stations;Сонячна електростанція;Дніпропетровська;NA;NA;34.98534;48.474173;c(34.98534, 48.474173)
Power_Stations;Дахова сонячна електростанція;Дніпропетровська;NA;NA;35.033803;48.4953;c(35.033803, 48.4953)
Power_Stations;Дахова сонячна електростанція;Івано-Франківська;NA;NA;24.738022;48.913059;c(24.738022, 48.913059)
Power_Stations;Сонячна електростанція;Київська;NA;NA;31.007222;49.550001;c(31.007222, 49.550001)
Power_Stations;Сонячна електростанція; Чернівецька;NA;NA;26.051892;48.348197;c(26.051892, 48.348197)
Power_Stations;Сонячна електростанція;Сумська;NA;NA;33.48033;50.72984;c(33.48033, 50.72984)
Power_Stations;Сонячна електростанція;Полтавська;NA;NA;32.417577;50.119837;c(32.417577, 50.119837)
Power_Stations;"Сонячна електростанція ""Монастирчани-2""";Івано-Франківська;NA;NA;24.459246;48.725189;c(24.459246, 48.725189)
Power_Stations;Сонячна електростанція;Івано-Франківська;NA;NA;25.084517;48.525886;c(25.084517, 48.525886)
Power_Stations;Сонячна електростанція;Хмельницька;3;22;27.536007;49.894004;c(27.536007, 49.894004)
Power_Stations;Сонячна електростанція;Кіровоградська;NA;NA;33.501207;48.336479;c(33.501207, 48.336479)
Power_Stations;"Вітропарк ""Причорноморський""";Миколаївська;NA;NA;31.738268;46.632258;c(31.738268, 46.632258)
Power_Stations;"Вітроелектростанція ""Старий Самбір-1""";Львівська;NA;NA;23.014136;49.443575;c(23.014136, 49.443575)
Power_Stations;"Вітроелектростанція ""Старий Самбір-2""";Львівська;NA;NA;22.984746;49.445948;c(22.984746, 49.445948)
Power_Stations;"Вітроелектростанція ""Сокальський вітропарк""";Львівська;NA;NA;24.184968;50.447561;c(24.184968, 50.447561)
Power_Stations;Вітроелектростанція;Івано-Франківська;NA;NA;23.915712;48.895025;c(23.915712, 48.895025)
Power_Stations;Вітроелектростанція;Львівська;NA;NA;24.319723;50.350001;c(24.319723, 50.350001)
Power_Stations;Приморська вітроелектростанція;Запорізька;NA;9600;35.969831;46.693134;c(35.969831, 46.693134)
Power_Stations;Вітроелектростанція;Рівненська;NA;NA;25.712085;50.422735;c(25.712085, 50.422735)
Power_Stations;"Вітроелектростанція ""Овер’янівська""";Херсонська;NA;4e3;34.423181;46.197629;c(34.423181, 46.197629)
Power_Stations;"Вітроелектростанція ""Новотроїцька""";Херсонська;NA;1920;34.393369;46.211265;c(34.393369, 46.211265)
Power_Stations;"Вітряний парк ""Причорноморський""";Миколаївська;NA;NA;31.367185;46.699608;c(31.367185, 46.699608)
Power_Stations;Вітроелектростанція;Львівська;NA;NA;24.280156;50.486354;c(24.280156, 50.486354)
Power_Stations;"Вітроелектростанція ""Дніпро-Бузька""";Херсонська;15;NA;32.109648;46.613168;c(32.109648, 46.613168)
Power_Stations;Вітроелектростанція;Тернопільська;NA;NA;24.829639;49.437345;c(24.829639, 49.437345)
Power_Stations;"Вітроелектростанція ""Шевченкове-1""";Івано-Франківська;NA;192;25.399189;48.53309;c(25.399189, 48.53309)
Power_Stations;Вітроелектростанція;Одеська;NA;8e3;29.962445;46.335915;c(29.962445, 46.335915)
Power_Stations;Вітроелектростанція;Одеська;NA;NA;31.04702;46.702084;c(31.04702, 46.702084)
Power_Stations;"Вітроелектростанція ""Овід Вінд""";Одеська;NA;NA;30.468521;46.19124;c(30.468521, 46.19124)
Power_Stations;Теплоелектростанція;Рівненська;NA;NA;25.777473;50.391309;c(25.777473, 50.391309)
Power_Stations;Котельня на біопаливі;Чернігівська;NA;NA;30.745713;51.522189;c(30.745713, 51.522189)
Power_Stations;Котельня на біопаливі;Хмельницька;NA;NA;26.580023;48.683973;c(26.580023, 48.683973)
Power_Stations;Котельня на біопаливі;Хмельницька;NA;NA;26.576845;48.664698;c(26.576845, 48.664698)
Power_Stations;Котельня на біопаливі;Хмельницька;NA;NA;26.606636;48.67271;c(26.606636, 48.67271)
Power_Stations;Котельня на біопаливі;Хмельницька;NA;NA;26.566279;48.703635;c(26.566279, 48.703635)
Power_Stations;Котельня на біопаливі;Хмельницька;NA;NA;26.595446;48.688858;c(26.595446, 48.688858)
Power_Stations;Біогазова ТЕС;Черкаська;NA;NA;30.21544;48.769929;c(30.21544, 48.769929)
Power_Stations;Біогазова ТЕС;Дніпропетровська;NA;NA;33.341828;47.872472;c(33.341828, 47.872472)
Power_Stations;Біогазова ТЕС;Дніпропетровська;NA;NA;33.412481;47.956845;c(33.412481, 47.956845)
Power_Stations;Біогазова ТЕС;Житомирська;29;NA;28.680654;50.240596;c(28.680654, 50.240596)
Power_Stations;Біогазова ТЕС;Хмельницька;5;20;26.964507;49.456092;c(26.964507, 49.456092)
Power_Stations;Біогазова ТЕС;Полтавська;NA;NA;33.431202;49.012578;c(33.431202, 49.012578)
Power_Stations;Біогазова ТЕС;Чернігівська;NA;NA;31.22515;51.523069;c(31.22515, 51.523069)
Power_Stations;Біогазова ТЕС;Волинська;NA;NA;25.214579;50.850942;c(25.214579, 50.850942)
Power_Stations;Біогазова ТЕС;Хмельницька;NA;NA;26.598737;48.671211;c(26.598737, 48.671211)
Power_Stations;Гідроелектростанція;Вінницька;NA;13;28.229856;49.49576;c(28.229856, 49.49576)
Power_Stations;"Гідроелектростанція "" Брустурянка""";Закарпатська;NA;150;23.942043;48.336601;c(23.942043, 48.336601)
Power_Stations;Каховська гідроелектростанція-2;Херсонська;NA;13440;33.369224;46.779088;c(33.369224, 46.779088)
Power_Stations;гідроелектростанція Лебединська;Кіровоградська;2;NA;30.444113;48.377362;c(30.444113, 48.377362)
Power_Stations;Міні-гідроелектростанція;Кіровоградська;5;44;30.520506;48.532211;c(30.520506, 48.532211)
Power_Stations;Міні-гідроелектростанція;Кіровоградська;5;44;30.532102;48.463408;c(30.532102, 48.463408)
Power_Stations;Міні-гідроелектростанція;Кіровоградська;5;44;30.515888;48.488773;c(30.515888, 48.488773)
Power_Stations;Міні-гідроелектростанція;Житомирська;NA;21;27.687609;50.295234;c(27.687609, 50.295234)
Power_Stations;Міні-гідроелектростанція;Черкаська;NA;NA;30.521273;48.99824;c(30.521273, 48.99824)
Power_Stations;Міні-гідроелектростанція;Дніпропетровська;NA;6;36.001868;48.209215;c(36.001868, 48.209215)
Power_Stations;Міні-гідроелектростанція;Івано-Франківська;NA;NA;24.161329;48.964162;c(24.161329, 48.964162)
Power_Stations;Дністровська ГАЕС;Вінницька;NA;NA;27.47778;48.516886;c(27.47778, 48.516886)
Power_Stations;Сонячна електростанція;Закарпатська;NA;NA;23.585729;48.111297;c(23.585729, 48.111297)
Power_Stations;Сонячна електростанція;Полтавська;NA;NA;34.294670000000004;49.35935;c(34.29467, 49.35935)
Elevators_Terminals;Елеватор;Кіровоградська;NA;NA;32.205248;48.514505;c(32.205248, 48.514505)
Elevators_Terminals;Зерносховища для зберігання сільськогосподарських культур;Кіровоградська;NA;2;30.693407;48.660973;c(30.693407, 48.660973)
Elevators_Terminals;"Зерновий термінал ""Баловнянська виробнича база""";Миколаївська;115;400;31.917189;47.085294;c(31.917189, 47.085294)
Elevators_Terminals;Зерновий термінал;Одеська;NA;NA;31.026743;46.617802;c(31.026743, 46.617802)
Elevators_Terminals;Зерновий термінал;Миколаївська;NA;60;31.773142;47.274223;c(31.773142, 47.274223)
Elevators_Terminals;Елеватор;Одеська;NA;45;29.131387;48.087766;c(29.131387, 48.087766)
Elevators_Terminals;Елеватор (с.Ястребове);Тернопільська;NA;NA;25.362084;49.468886;c(25.362084, 49.468886)
Elevators_Terminals;Зерновий термінал;Миколаївська;150;NA;32.004923;46.949742;c(32.004923, 46.949742)
Elevators_Terminals;Зерновий термінал Louis Dreyfus та Бруклін-Київ;Одеська;NA;NA;30.748084;46.485186;c(30.748084, 46.485186)
Elevators_Terminals;Зерновий термінал Risoil S.A.;Одеська;NA;NA;30.656693;46.310302;c(30.656693, 46.310302)
Elevators_Terminals;Зерновий термінал;Одеська;NA;NA;30.740261;46.492115;c(30.740261, 46.492115)
Elevators_Terminals;Елеватор для зберігання зерна;Тернопільська;NA;NA;26.132497;49.593338;c(26.132497, 49.593338)
Elevators_Terminals;Елеватор для зберігання зерна;Полтавська;NA;NA;32.514605;50.243699;c(32.514605, 50.243699)
Elevators_Terminals;Елеватор для зберігання зерна;Кіровоградська;2;25;31.593805;48.177981;c(31.593805, 48.177981)
Elevators_Terminals;Елеватор для сушіння зерна;Чернігівська;NA;78;31.198956;51.241572;c(31.198956, 51.241572)
Elevators_Terminals;Елеватор для очищення, сушіння зерна;Полтавська;NA;300;32.512459;50.244111;c(32.512459, 50.244111)
Elevators_Terminals;Елеватор для зберігання зерна;Полтавська;NA;NA;33.259997;49.392023;c(33.259997, 49.392023)
Elevators_Terminals;Елеватор для зберігання зерна;Чернігівська;NA;75;31.888099;51.037796;c(31.888099, 51.037796)
Elevators_Terminals;Елеватор для зберігання зерна;Тернопільська;NA;NA;25.340971;49.07062;c(25.340971, 49.07062)
Elevators_Terminals;Елеватор для зберігання зерна;Івано-Франківська;NA;NA;25.47717;48.682171;c(25.47717, 48.682171)
Elevators_Terminals;Елеватор для зберігання зерна;Вінницька;NA;NA;27.897227;49.619729;c(27.897227, 49.619729)
Elevators_Terminals;Елеватор для зберігання зерна;Тернопільська;NA;NA;25.5099;49.424235;c(25.5099, 49.424235)
Elevators_Terminals;Елеватор для зберігання зерна;Вінницька;NA;120;29.381204;48.813947;c(29.381204, 48.813947)
Elevators_Terminals;Елеватор для зберігання зерна;Житомирська;NA;7;28.290128;51.409718;c(28.290128, 51.409718)
Elevators_Terminals;Елеваторний комплекс;Запорізька;120;NA;35.047588;47.619818;c(35.047588, 47.619818)
Elevators_Terminals;Кооперативний елеватор;Дніпропетровська;NA;NA;36.022671;48.206183;c(36.022671, 48.206183)
Elevators_Terminals;Катеринопільський елеватор;Черкаська;NA;NA;30.996787;48.993763;c(30.996787, 48.993763)
Elevators_Terminals;Зерновий елеватор;Дніпропетровська;NA;80;35.49084;48.323589;c(35.49084, 48.323589)
Elevators_Terminals;Зерновий елеватор;Хмельницька;40;NA;26.325198;49.112865;c(26.325198, 49.112865)
Elevators_Terminals;Перевантажувальний термінал;Херсонська;100;NA;32.511764;46.529246;c(32.511764, 46.529246)
Elevators_Terminals;Перевантажувальний комплекс;Одеська;NA;NA;31.026418;46.619037;c(31.026418, 46.619037)
Elevators_Terminals;Елеватор;Тернопільська;NA;160;25.731642;48.702225;c(25.731642, 48.702225)
Elevators_Terminals;Зерносушильний комплекс;Кіровоградська;10;NA;32.07822;48.749249;c(32.07822, 48.749249)
Elevators_Terminals;Елеватор для зберігання зерна;Кіровоградська;NA;67;31.704743;48.853249;c(31.704743, 48.853249)
Elevators_Terminals;Елеватор для зберігання зерна;Черкаська;NA;152;31.699495;48.913501;c(31.699495, 48.913501)
Elevators_Terminals;Елеватор для зберігання зерна;Кіровоградська;NA;9;33.338399;48.910767;c(33.338399, 48.910767)
Elevators_Terminals;Елеватор для зберігання зернових і технічних культур;Кіровоградська;NA;80;30.599377;48.340189;c(30.599377, 48.340189)
Elevators_Terminals;Елеватор з прийняття, зберігання зернових культур і кукурудзи;Кіровоградська;NA;NA;31.849338;48.423363;c(31.849338, 48.423363)
Elevators_Terminals;Зерносховище по зберіганню зерна;Кіровоградська;NA;NA;32.407677;48.79741;c(32.407677, 48.79741)
Elevators_Terminals;Зерновий елеватор;Кіровоградська;NA;NA;30.68159;48.72337;c(30.68159, 48.72337)
Elevators_Terminals;Елеватор;Львівська;NA;NA;24.673928;49.552484;c(24.673928, 49.552484)
Elevators_Terminals;Зерновий елеватор;Донецька;NA;NA;37.172764;48.299668;c(37.172764, 48.299668)
Elevators_Terminals;Елеваторний комплекс;Львівська;NA;20;24.256625;50.465087;c(24.256625, 50.465087)
Elevators_Terminals;Зерновий терминал;Донецька;NA;950;37.505254;47.056441;c(37.505254, 47.056441)
Elevators_Terminals;Зерновий термінал;Одеська;500;NA;31.00226;46.660992;c(31.00226, 46.660992)
Elevators_Terminals;Перевантажувальний термінал;Миколаївська;NA;NA;32.000206;46.853058;c(32.000206, 46.853058)
Elevators_Terminals;Зерновий термінал;Запорізька;NA;70;36.776309;46.753672;c(36.776309, 46.753672)
Elevators_Terminals;Зерновий термінал;Миколаївська;NA;NA;31.981924;46.853117;c(31.981924, 46.853117)
Elevators_Terminals;Зерновий термінал;Миколаївська;NA;NA;31.985353;46.948094;c(31.985353, 46.948094)
Elevators_Terminals;Елеваторний комплекс;Львівська;12;NA;23.462204;49.631817;c(23.462204, 49.631817)
Elevators_Terminals;Елеваторний комплекс;Волинська;80;NA;24.284973;50.861037;c(24.284973, 50.861037)
Elevators_Terminals;Елеваторний комплекс;Сумська;NA;NA;33.485062;51.535206;c(33.485062, 51.535206)
Elevators_Terminals;Елеваторний комплекс;Полтавська;NA;NA;33.695559;49.799537;c(33.695559, 49.799537)
Elevators_Terminals;Елеваторний комплекс;Харківська;NA;NA;36.367697;49.850704;c(36.367697, 49.850704)
Elevators_Terminals;Елеватор;Сумська;NA;NA;33.45839;50.668457;c(33.45839, 50.668457)
Elevators_Terminals;Елеватор;Житомирська;200;NA;28.137699;50.022574;c(28.137699, 50.022574)
Elevators_Terminals;Елеватор;Черкаська;NA;NA;30.098993;49.241247;c(30.098993, 49.241247)
Elevators_Terminals;Елеватор;Вінницька;NA;NA;27.77941;48.60679;c(27.77941, 48.60679)
Elevators_Terminals;Елеватор;Черкаська;NA;NA;30.23495;48.642978;c(30.23495, 48.642978)
Elevators_Terminals;Елеватор;Тернопільська;19;NA;26.083968;49.873388;c(26.083968, 49.873388)
Elevators_Terminals;Перевантажувальний термінал;Дніпропетровська;NA;NA;35.336689;48.121744;c(35.336689, 48.121744)
Elevators_Terminals;Яреськівський елеватор;Полтавська;NA;NA;33.901678;49.845311;c(33.901678, 49.845311)
Elevators_Terminals;Елеватор;Полтавська;NA;NA;33.889369;49.238027;c(33.889369, 49.238027)
Elevators_Terminals;Елеватор;Полтавська;NA;NA;35.093803;49.775534;c(35.093803, 49.775534)
Elevators_Terminals;Елеватор;Київська;NA;NA;30.600268;49.495102;c(30.600268, 49.495102)
Elevators_Terminals;Елеватор;Львівська;NA;NA;25.148373;50.074463;c(25.148373, 50.074463)
Elevators_Terminals;Перевантажувальний термінал;Полтавська;NA;NA;33.443323;49.059553;c(33.443323, 49.059553)
Elevators_Terminals;Зерновий елеватор;Кіровоградська;NA;50;32.757002;48.11994;c(32.757002, 48.11994)
Elevators_Terminals;Зерновий елеватор;Вінницька;120;NA;28.91403;49.708824;c(28.91403, 49.708824)
Gas_Fields;Колодницьке газове родовище;Львівська;NA;NA;23.886005;49.330088;c(23.886005, 49.330088)
Gas_Fields;Крехівське газове родовище;Львівська;NA;50;24.130114;49.270961;c(24.130114, 49.270961)
Gas_Fields;Краснокутське газове родовище;Харківська;NA;NA;35.359444;49.877778;c(35.359444, 49.877778)
Gas_Fields;Бистрицьке газове родовище;Львівська;5;95;23.715325;49.47518;c(23.715325, 49.47518)
Gas_Fields;Гірське газове родовище;Львівська;NA;NA;23.708588;49.473646;c(23.708588, 49.473646)
Gas_Fields;Пегедівське газове родовище;Харківська;NA;NA;35.867071;49.76533;c(35.867071, 49.76533)
Others;Забійний цех;Львівська;NA;6;24.949118;49.871657;c(24.949118, 49.871657)
Others;Цех із виробництва міцелію;Черкаська;13;22;30.33987;48.720116;c(30.33987, 48.720116)
Others;Комплекс зі зберігання фруктів та овочів;Запорізька;NA;NA;35.316623;47.16212;c(35.316623, 47.16212)
Others;"Футбольна школа ""Надія""";Дніпропетровська;NA;NA;34.594636;48.527848;c(34.594636, 48.527848)
Others;Підприємство з переробки горіху і виготовлення медово-горіхових продуктів;Одеська;30;NA;30.070444;46.497189;c(30.070444, 46.497189)
Livestock_Rooms;Інкубаторна станція;Кіровоградська;5;NA;29.878607;48.293187;c(29.878607, 48.293187)
Livestock_Rooms;Автоматизований комплекс молочної ферми;Кіровоградська;25;NA;32.62839;47.829316;c(32.62839, 47.829316)
Livestock_Rooms;Племінний репродуктор на базі свинокомплексу;Кіровоградська;20;NA;32.208405;48.250819;c(32.208405, 48.250819)
Livestock_Rooms;Свинокомплекс №9;Київська;NA;NA;31.877261;50.254898;c(31.877261, 50.254898)
Livestock_Rooms;Тваринницький комплекс;Житомирська;NA;25;28.730224;50.957562;c(28.730224, 50.957562)
Livestock_Rooms;Тваринницький комплекс;Волинська;33;NA;25.053541;50.547655;c(25.053541, 50.547655)
Livestock_Rooms;"Молочна ферма Прикарпаття ""Мукко""";Львівська;NA;NA;23.913211;49.301289;c(23.913211, 49.301289)
Livestock_Rooms;Молочний комплекс;Волинська;50;15;24.650897;51.136135;c(24.650897, 51.136135)
Livestock_Rooms;Оленяча ферма;Волинська;4;NA;24.622142;51.048547;c(24.622142, 51.048547)
Livestock_Rooms;Свинокомплекс;Вінницька;15;96;28.358581;49.492232;c(28.358581, 49.492232)
